{"type": "FeatureCollection", "features": [{"type": "Feature", "geometry": {"type": "Point", "coordinates": [-1.9569396972656248, 55.2517289242889]}, "properties": {"name": "Northumberland"}}, {"type": "Feature", "geometry": {"type": "Point", "coordinates": [-1.23046875, 52.40241887397332]}, "properties": {"name": "England"}}, {"type": "Feature", "geometry": {"type": "Point", "coordinates": [1.0793209075927734, 51.279957709836474]}, "properties": {"name": "Canterbury"}}, {"type": "Feature", "geometry": {"type": "Point", "coordinates": [-0.12359619140625, 51.50831509192025]}, "properties": {"name": "London"}}, {"type": "Feature", "geometry": {"type": "Point", "coordinates": [-1.0817241668701172, 53.95886311552885]}, "properties": {"name": "York"}}, {"type": "Feature", "geometry": {"type": "Point", "coordinates": [-75.1025390625, 20.34462694382967]}, "properties": {"name": "India"}}, {"type": "Feature", "geometry": {"type": "Point", "coordinates": [2.900390625, 47.30903424774781]}, "properties": {"name": "France"}}, {"type": "Feature", "geometry": {"type": "Point", "coordinates": [-2.1152114868164062, 52.80608223985886]}, "properties": {"name": "Stafford"}}, {"type": "Feature", "geometry": {"type": "Point", "coordinates": [-0.57952880859375, 44.84029065139799]}, "properties": {"name": "Bordeaux"}}, {"type": "Feature", "geometry": {"type": "Point", "coordinates": [-0.38486480712890625, 51.250741914997924]}, "properties": {"name": "Surrey"}}, {"type": "Feature", "geometry": {"type": "Point", "coordinates": [-1.2572479248046875, 51.75168965298393]}, "properties": {"name": "Oxford"}}, {"type": "Feature", "geometry": {"type": "Point", "coordinates": [1.0382080078125, 52.6946965109301]}, "properties": {"name": "Norfolk"}}, {"type": "Feature", "geometry": {"type": "Point", "coordinates": [12.480468749999998, 41.89001042401827]}, "properties": {"name": "Rome"}}, {"type": "Feature", "geometry": {"type": "Point", "coordinates": [10.096435546875, 51.11731684874898]}, "properties": {"name": "Germany"}}, {"type": "Feature", "geometry": {"type": "Point", "coordinates": [2.3383498191833496, 48.86038105494252]}, "properties": {"name": "Louvre"}}, {"type": "Feature", "geometry": {"type": "Point", "coordinates": [0.09098052978515625, 48.43113690453963]}, "properties": {"name": "Alen\u00e7on"}}, {"type": "Feature", "geometry": {"type": "Point", "coordinates": [-3.8232421874999996, 40.863679665481676]}, "properties": {"name": "Spain"}}, {"type": "Feature", "geometry": {"type": "Point", "coordinates": [-7.75634765625, 53.396432127095984]}, "properties": {"name": "Ireland"}}, {"type": "Feature", "geometry": {"type": "Point", "coordinates": [-1.794891357421875, 51.07289978897564]}, "properties": {"name": "Salisbury"}}, {"type": "Feature", "geometry": {"type": "Point", "coordinates": [1.0931396484375, 52.237051359522724]}, "properties": {"name": "Suffolk"}}, {"type": "Feature", "geometry": {"type": "Point", "coordinates": [-1.3152694702148438, 51.061465197550305]}, "properties": {"name": "Winchester"}}, {"type": "Feature", "geometry": {"type": "Point", "coordinates": [-0.9794998168945312, 51.99819900379224]}, "properties": {"name": "Buckingham"}}, {"type": "Feature", "geometry": {"type": "Point", "coordinates": [-4.917755126953124, 51.68277383281327]}, "properties": {"name": "Pembroke"}}, {"type": "Feature", "geometry": {"type": "Point", "coordinates": [4.39178466796875, 51.022393690441405]}, "properties": {"name": "Flanders"}}, {"type": "Feature", "geometry": {"type": "Point", "coordinates": [-0.8967590332031249, 52.23600009974023]}, "properties": {"name": "Northampton"}}, {"type": "Feature", "geometry": {"type": "Point", "coordinates": [1.9775390625, 50.854617416100474]}, "properties": {"name": "Arde"}}, {"type": "Feature", "geometry": {"type": "Point", "coordinates": [-1.593017578125, 52.802761415419674]}, "properties": {"name": "Britain"}}, {"type": "Feature", "geometry": {"type": "Point", "coordinates": [1.153564453125, 52.05713493293754]}, "properties": {"name": "Ipswich"}}, {"type": "Feature", "geometry": {"type": "Point", "coordinates": [-0.07896423339843749, 51.79577039951693]}, "properties": {"name": "Hertford"}}, {"type": "Feature", "geometry": {"type": "Point", "coordinates": [-0.0043773651123046875, 51.48202432378791]}, "properties": {"name": "Greenwich"}}, {"type": "Feature", "geometry": {"type": "Point", "coordinates": [-4.025115966796874, 39.861263098008536]}, "properties": {"name": "Toledo"}}, {"type": "Feature", "geometry": {"type": "Point", "coordinates": [-4.20501708984375, 53.03543290697411]}, "properties": {"name": "Carnarvanshire"}}, {"type": "Feature", "geometry": {"type": "Point", "coordinates": [29.53125, 26.588527147308614]}, "properties": {"name": "Egypt"}}, {"type": "Feature", "geometry": {"type": "Point", "coordinates": [-1.4769744873046873, 43.49240920612928]}, "properties": {"name": "Bayonne"}}, {"type": "Feature", "geometry": {"type": "Point", "coordinates": [1.90887451171875, 47.902073870452504]}, "properties": {"name": "Orleans"}}, {"type": "Feature", "geometry": {"type": "Point", "coordinates": [-0.5390167236328125, 53.2344000261399]}, "properties": {"name": "Lincoln"}}, {"type": "Feature", "geometry": {"type": "Point", "coordinates": [-0.5156707763671875, 51.888464736976516]}, "properties": {"name": "Dunstable"}}, {"type": "Feature", "geometry": {"type": "Point", "coordinates": [-0.4948997497558593, 52.0275710572029]}, "properties": {"name": "Ampthill"}}, {"type": "Feature", "geometry": {"type": "Point", "coordinates": [-0.3888988494873047, 52.29735194548279]}, "properties": {"name": "Kymmalton"}}, {"type": "Feature", "geometry": {"type": "Point", "coordinates": [-0.1266646385192871, 51.504241550123574]}, "properties": {"name": "Whitehall"}}, {"type": "Feature", "geometry": {"type": "Point", "coordinates": [-1.1353683471679688, 52.636188306827954]}, "properties": {"name": "Leicester"}}, {"type": "Feature", "geometry": {"type": "Point", "coordinates": [-0.12170791625976562, 51.510398467611765]}, "properties": {"name": "Strand"}}, {"type": "Feature", "geometry": {"type": "Point", "coordinates": [-0.09174227714538574, 51.501710428431856]}, "properties": {"name": "Marshalsea Prison"}}]}