{"type": "FeatureCollection", "features": [{"type": "Feature", "geometry": {"type": "Point", "coordinates": [-3.514167396438862, 40.39967121554254]}, "properties": {"name": "Spain"}}, {"type": "Feature", "geometry": {"type": "Point", "coordinates": [15.1828758026426, 37.20322670349548]}, "properties": {"name": "Hybla"}}, {"type": "Feature", "geometry": {"type": "Point", "coordinates": [24.653863639115546, 40.6843489439985]}, "properties": {"name": "Thasos"}}, {"type": "Feature", "geometry": {"type": "Point", "coordinates": [28.031224241702787, 38.51122563612355]}, "properties": {"name": "Sardis"}}, {"type": "Feature", "geometry": {"type": "Point", "coordinates": [22.421097650882754, 40.08065830107015]}, "properties": {"name": "Olympus"}}, {"type": "Feature", "geometry": {"type": "Point", "coordinates": [53.13505518362014, 32.311812623791525]}, "properties": {"name": "Parthia"}}, {"type": "Feature", "geometry": {"type": "Point", "coordinates": [12.444086094531642, 42.448271750827935]}, "properties": {"name": "Tiber"}}, {"type": "Feature", "geometry": {"type": "Point", "coordinates": [12.433305891418106, 43.392933189703115]}, "properties": {"name": "Italy"}}, {"type": "Feature", "geometry": {"type": "Point", "coordinates": [24.286237893907273, 41.01414303246072]}, "properties": {"name": "Philippi"}}, {"type": "Feature", "geometry": {"type": "Point", "coordinates": [26.23841363551267, 39.9602021169632]}, "properties": {"name": "Troy"}}, {"type": "Feature", "geometry": {"type": "Point", "coordinates": [12.492081251881626, 41.89096599463341]}, "properties": {"name": "Capitol"}}]}