{"type": "FeatureCollection", "features": [{"type": "Feature", "geometry": {"type": "Point", "coordinates": [-3.592529296875, 52.328625488430184]}, "properties": {"play": "Henry IV, Part II", "place name": "Wales", "character": "Falstaff", "a.s.l.": "1.2.107"}}, {"type": "Feature", "geometry": {"type": "Point", "coordinates": [-3.592529296875, 52.328625488430184]}, "properties": {"play": "Henry IV, Part II", "place name": "Wales", "character": "Gower", "a.s.l.": "2.1.140"}}, {"type": "Feature", "geometry": {"type": "Point", "coordinates": [-3.592529296875, 52.328625488430184]}, "properties": {"play": "Henry IV, Part II", "place name": "Wales", "character": "Falstaff", "a.s.l.": "2.1.184"}}, {"type": "Feature", "geometry": {"type": "Point", "coordinates": [-3.592529296875, 52.328625488430184]}, "properties": {"play": "Henry IV, Part II", "place name": "Wales", "character": "Prince", "a.s.l.": "2.2.118"}}, {"type": "Feature", "geometry": {"type": "Point", "coordinates": [-3.592529296875, 52.328625488430184]}, "properties": {"play": "Henry IV, Part II", "place name": "Wales", "character": "Hostess", "a.s.l.": "2.4.299"}}, {"type": "Feature", "geometry": {"type": "Point", "coordinates": [-3.592529296875, 52.328625488430184]}, "properties": {"play": "Henry IV, Part II", "place name": "Wales", "character": "King", "a.s.l.": "4.3.203"}}, {"type": "Feature", "geometry": {"type": "Point", "coordinates": [-1.9569396972656248, 55.2517289242889]}, "properties": {"play": "Henry IV, Part II", "place name": "Northumberland", "character": "Rumor", "a.s.l.": "IND.36"}}, {"type": "Feature", "geometry": {"type": "Point", "coordinates": [-1.9569396972656248, 55.2517289242889]}, "properties": {"play": "Henry IV, Part II", "place name": "Northumberland", "character": "Northumberland", "a.s.l.": "1.1.168"}}, {"type": "Feature", "geometry": {"type": "Point", "coordinates": [-1.9569396972656248, 55.2517289242889]}, "properties": {"play": "Henry IV, Part II", "place name": "Northumberland", "character": "Chief Justice", "a.s.l.": "1.2.210"}}, {"type": "Feature", "geometry": {"type": "Point", "coordinates": [-1.9569396972656248, 55.2517289242889]}, "properties": {"play": "Henry IV, Part II", "place name": "Northumberland", "character": "Hastings", "a.s.l.": "1.3.14"}}, {"type": "Feature", "geometry": {"type": "Point", "coordinates": [-1.9569396972656248, 55.2517289242889]}, "properties": {"play": "Henry IV, Part II", "place name": "Northumberland", "character": "Lord Bardolph", "a.s.l.": "1.3.18"}}, {"type": "Feature", "geometry": {"type": "Point", "coordinates": [-1.9569396972656248, 55.2517289242889]}, "properties": {"play": "Henry IV, Part II", "place name": "Northumberland", "character": "Gower", "a.s.l.": "2.1.183"}}, {"type": "Feature", "geometry": {"type": "Point", "coordinates": [-1.9569396972656248, 55.2517289242889]}, "properties": {"play": "Henry IV, Part II", "place name": "Northumberland", "character": "Warwick", "a.s.l.": "3.1.44"}}, {"type": "Feature", "geometry": {"type": "Point", "coordinates": [-1.9569396972656248, 55.2517289242889]}, "properties": {"play": "Henry IV, Part II", "place name": "Northumberland", "character": "King", "a.s.l.": "3.1.58"}}, {"type": "Feature", "geometry": {"type": "Point", "coordinates": [-1.9569396972656248, 55.2517289242889]}, "properties": {"play": "Henry IV, Part II", "place name": "Northumberland", "character": "King", "a.s.l.": "3.1.69"}}, {"type": "Feature", "geometry": {"type": "Point", "coordinates": [-1.9569396972656248, 55.2517289242889]}, "properties": {"play": "Henry IV, Part II", "place name": "Northumberland", "character": "King", "a.s.l.": "3.1.71"}}, {"type": "Feature", "geometry": {"type": "Point", "coordinates": [-1.9569396972656248, 55.2517289242889]}, "properties": {"play": "Henry IV, Part II", "place name": "Northumberland", "character": "Warwick", "a.s.l.": "3.1.90"}}, {"type": "Feature", "geometry": {"type": "Point", "coordinates": [-1.9569396972656248, 55.2517289242889]}, "properties": {"play": "Henry IV, Part II", "place name": "Northumberland", "character": "King", "a.s.l.": "3.1.97"}}, {"type": "Feature", "geometry": {"type": "Point", "coordinates": [-1.9569396972656248, 55.2517289242889]}, "properties": {"play": "Henry IV, Part II", "place name": "Northumberland", "character": "Archbishop", "a.s.l.": "4.1.9"}}, {"type": "Feature", "geometry": {"type": "Point", "coordinates": [-1.9569396972656248, 55.2517289242889]}, "properties": {"play": "Henry IV, Part II", "place name": "Northumberland", "character": "Harcourt", "a.s.l.": "4.3.105"}}, {"type": "Feature", "geometry": {"type": "Point", "coordinates": [-2.2206115722656246, 52.190772371135374]}, "properties": {"play": "Henry IV, Part II", "place name": "Worcester", "character": "Morton", "a.s.l.": "1.1.138"}}, {"type": "Feature", "geometry": {"type": "Point", "coordinates": [35.211181640625, 31.77837995377096]}, "properties": {"play": "Henry IV, Part II", "place name": "Jerusalem", "character": "Warwick", "a.s.l.": "4.3.395"}}, {"type": "Feature", "geometry": {"type": "Point", "coordinates": [35.211181640625, 31.77837995377096]}, "properties": {"play": "Henry IV, Part II", "place name": "Jerusalem", "character": "King", "a.s.l.": "4.3.398"}}, {"type": "Feature", "geometry": {"type": "Point", "coordinates": [35.211181640625, 31.77837995377096]}, "properties": {"play": "Henry IV, Part II", "place name": "Jerusalem", "character": "King", "a.s.l.": "4.3.401"}}, {"type": "Feature", "geometry": {"type": "Point", "coordinates": [-0.5812454223632812, 51.45828549061808]}, "properties": {"play": "Henry IV, Part II", "place name": "Windsor", "character": "Hostess", "a.s.l.": "2.1.93"}}, {"type": "Feature", "geometry": {"type": "Point", "coordinates": [-0.5812454223632812, 51.45828549061808]}, "properties": {"play": "Henry IV, Part II", "place name": "Windsor", "character": "Humphrey Of Gloucester", "a.s.l.": "4.3.15"}}, {"type": "Feature", "geometry": {"type": "Point", "coordinates": [-0.5812454223632812, 51.45828549061808]}, "properties": {"play": "Henry IV, Part II", "place name": "Windsor", "character": "King", "a.s.l.": "4.3.55"}}, {"type": "Feature", "geometry": {"type": "Point", "coordinates": [-1.23046875, 52.40241887397332]}, "properties": {"play": "Henry IV, Part II", "place name": "England", "character": "Falstaff", "a.s.l.": "2.1.155"}}, {"type": "Feature", "geometry": {"type": "Point", "coordinates": [-1.23046875, 52.40241887397332]}, "properties": {"play": "Henry IV, Part II", "place name": "England", "character": "Lady Percy", "a.s.l.": "2.3.20"}}, {"type": "Feature", "geometry": {"type": "Point", "coordinates": [-1.23046875, 52.40241887397332]}, "properties": {"play": "Henry IV, Part II", "place name": "England", "character": "Doll", "a.s.l.": "2.4.73"}}, {"type": "Feature", "geometry": {"type": "Point", "coordinates": [-1.23046875, 52.40241887397332]}, "properties": {"play": "Henry IV, Part II", "place name": "England", "character": "Westmoreland", "a.s.l.": "4.1.138"}}, {"type": "Feature", "geometry": {"type": "Point", "coordinates": [-1.23046875, 52.40241887397332]}, "properties": {"play": "Henry IV, Part II", "place name": "England", "character": "Hastings", "a.s.l.": "4.1.296"}}, {"type": "Feature", "geometry": {"type": "Point", "coordinates": [-1.23046875, 52.40241887397332]}, "properties": {"play": "Henry IV, Part II", "place name": "England", "character": "King", "a.s.l.": "4.3.283"}}, {"type": "Feature", "geometry": {"type": "Point", "coordinates": [-1.23046875, 52.40241887397332]}, "properties": {"play": "Henry IV, Part II", "place name": "England", "character": "King", "a.s.l.": "4.3.284"}}, {"type": "Feature", "geometry": {"type": "Point", "coordinates": [-1.23046875, 52.40241887397332]}, "properties": {"play": "Henry IV, Part II", "place name": "England", "character": "Prince", "a.s.l.": "5.2.72"}}, {"type": "Feature", "geometry": {"type": "Point", "coordinates": [-1.23046875, 52.40241887397332]}, "properties": {"play": "Henry IV, Part II", "place name": "England", "character": "Falstaff", "a.s.l.": "5.3.139"}}, {"type": "Feature", "geometry": {"type": "Point", "coordinates": [0.4549455642700195, 51.41304596140246]}, "properties": {"play": "Henry IV, Part II", "place name": "Gad's Hill", "character": "Chief Justice", "a.s.l.": "1.2.152"}}, {"type": "Feature", "geometry": {"type": "Point", "coordinates": [0.4549455642700195, 51.41304596140246]}, "properties": {"play": "Henry IV, Part II", "place name": "Gad's Hill", "character": "Prince", "a.s.l.": "2.4.313"}}, {"type": "Feature", "geometry": {"type": "Point", "coordinates": [-0.12359619140625, 51.50831509192025]}, "properties": {"play": "Henry IV, Part II", "place name": "London", "character": "Archbishop", "a.s.l.": "1.3.109"}}, {"type": "Feature", "geometry": {"type": "Point", "coordinates": [-0.12359619140625, 51.50831509192025]}, "properties": {"play": "Henry IV, Part II", "place name": "London", "character": "Prince", "a.s.l.": "2.2.143"}}, {"type": "Feature", "geometry": {"type": "Point", "coordinates": [-0.12359619140625, 51.50831509192025]}, "properties": {"play": "Henry IV, Part II", "place name": "London", "character": "Poins", "a.s.l.": "2.2.168"}}, {"type": "Feature", "geometry": {"type": "Point", "coordinates": [-0.12359619140625, 51.50831509192025]}, "properties": {"play": "Henry IV, Part II", "place name": "London", "character": "Hostess", "a.s.l.": "2.4.297"}}, {"type": "Feature", "geometry": {"type": "Point", "coordinates": [-0.12359619140625, 51.50831509192025]}, "properties": {"play": "Henry IV, Part II", "place name": "London", "character": "Thomas Of Clarence", "a.s.l.": "4.3.56"}}, {"type": "Feature", "geometry": {"type": "Point", "coordinates": [-0.12359619140625, 51.50831509192025]}, "properties": {"play": "Henry IV, Part II", "place name": "London", "character": "Shallow", "a.s.l.": "5.3.59"}}, {"type": "Feature", "geometry": {"type": "Point", "coordinates": [-0.12359619140625, 51.50831509192025]}, "properties": {"play": "Henry IV, Part II", "place name": "London", "character": "Davy", "a.s.l.": "5.3.60"}}, {"type": "Feature", "geometry": {"type": "Point", "coordinates": [-0.08432865142822266, 51.510759042194714]}, "properties": {"play": "Henry IV, Part II", "place name": "Eastcheap", "character": "Hostess", "a.s.l.": "2.1.72"}}, {"type": "Feature", "geometry": {"type": "Point", "coordinates": [-0.08432865142822266, 51.510759042194714]}, "properties": {"play": "Henry IV, Part II", "place name": "Eastcheap", "character": "Bardolph", "a.s.l.": "2.2.147"}}, {"type": "Feature", "geometry": {"type": "Point", "coordinates": [0.018882751464843747, 53.16514420040849]}, "properties": {"play": "Henry IV, Part II", "place name": "Bolingbroke", "character": "Morton", "a.s.l.": "1.1.228"}}, {"type": "Feature", "geometry": {"type": "Point", "coordinates": [0.018882751464843747, 53.16514420040849]}, "properties": {"play": "Henry IV, Part II", "place name": "Bolingbroke", "character": "Archbishop", "a.s.l.": "1.3.96"}}, {"type": "Feature", "geometry": {"type": "Point", "coordinates": [0.018882751464843747, 53.16514420040849]}, "properties": {"play": "Henry IV, Part II", "place name": "Bolingbroke", "character": "Archbishop", "a.s.l.": "1.3.110"}}, {"type": "Feature", "geometry": {"type": "Point", "coordinates": [0.018882751464843747, 53.16514420040849]}, "properties": {"play": "Henry IV, Part II", "place name": "Bolingbroke", "character": "King", "a.s.l.": "3.1.72"}}, {"type": "Feature", "geometry": {"type": "Point", "coordinates": [0.018882751464843747, 53.16514420040849]}, "properties": {"play": "Henry IV, Part II", "place name": "Bolingbroke", "character": "Mowbray", "a.s.l.": "4.1.122"}}, {"type": "Feature", "geometry": {"type": "Point", "coordinates": [0.018882751464843747, 53.16514420040849]}, "properties": {"play": "Henry IV, Part II", "place name": "Bolingbroke", "character": "Mowbray", "a.s.l.": "4.1.130"}}, {"type": "Feature", "geometry": {"type": "Point", "coordinates": [0.018882751464843747, 53.16514420040849]}, "properties": {"play": "Henry IV, Part II", "place name": "Bolingbroke", "character": "Mowbray", "a.s.l.": "4.1.135"}}, {"type": "Feature", "geometry": {"type": "Point", "coordinates": [-2.06268310546875, 51.85529064543267]}, "properties": {"play": "Henry IV, Part II", "place name": "Gloucestershire", "character": "Falstaff", "a.s.l.": "4.2.84"}}, {"type": "Feature", "geometry": {"type": "Point", "coordinates": [-2.06268310546875, 51.85529064543267]}, "properties": {"play": "Henry IV, Part II", "place name": "Gloucestershire", "character": "Falstaff", "a.s.l.": "4.2.132"}}, {"type": "Feature", "geometry": {"type": "Point", "coordinates": [-1.0817241668701172, 53.95886311552885]}, "properties": {"play": "Henry IV, Part II", "place name": "York", "character": "Morton", "a.s.l.": "1.1.207"}}, {"type": "Feature", "geometry": {"type": "Point", "coordinates": [-1.0817241668701172, 53.95886311552885]}, "properties": {"play": "Henry IV, Part II", "place name": "York", "character": "Chief Justice", "a.s.l.": "1.2.66"}}, {"type": "Feature", "geometry": {"type": "Point", "coordinates": [-1.0817241668701172, 53.95886311552885]}, "properties": {"play": "Henry IV, Part II", "place name": "York", "character": "Chief Justice", "a.s.l.": "2.1.68"}}, {"type": "Feature", "geometry": {"type": "Point", "coordinates": [-1.0817241668701172, 53.95886311552885]}, "properties": {"play": "Henry IV, Part II", "place name": "York", "character": "Mowbray", "a.s.l.": "4.1.239"}}, {"type": "Feature", "geometry": {"type": "Point", "coordinates": [-1.0817241668701172, 53.95886311552885]}, "properties": {"play": "Henry IV, Part II", "place name": "York", "character": "John Of Lancaster", "a.s.l.": "4.1.246"}}, {"type": "Feature", "geometry": {"type": "Point", "coordinates": [-1.0817241668701172, 53.95886311552885]}, "properties": {"play": "Henry IV, Part II", "place name": "York", "character": "John Of Lancaster", "a.s.l.": "4.2.75"}}, {"type": "Feature", "geometry": {"type": "Point", "coordinates": [-1.0817241668701172, 53.95886311552885]}, "properties": {"play": "Henry IV, Part II", "place name": "York", "character": "Harcourt", "a.s.l.": "4.3.107"}}, {"type": "Feature", "geometry": {"type": "Point", "coordinates": [-4.21875, 56.57764086466516]}, "properties": {"play": "Henry IV, Part II", "place name": "Scotland", "character": "Lady Northumberland", "a.s.l.": "2.3.53"}}, {"type": "Feature", "geometry": {"type": "Point", "coordinates": [-4.21875, 56.57764086466516]}, "properties": {"play": "Henry IV, Part II", "place name": "Scotland", "character": "Northumberland", "a.s.l.": "2.3.70"}}, {"type": "Feature", "geometry": {"type": "Point", "coordinates": [-4.21875, 56.57764086466516]}, "properties": {"play": "Henry IV, Part II", "place name": "Scotland", "character": "Archbishop", "a.s.l.": "4.1.15"}}, {"type": "Feature", "geometry": {"type": "Point", "coordinates": [-2.7987670898437496, 54.04850481065724]}, "properties": {"play": "Henry IV, Part II", "place name": "Lancaster", "character": "Morton", "a.s.l.": "1.1.147"}}, {"type": "Feature", "geometry": {"type": "Point", "coordinates": [-2.7987670898437496, 54.04850481065724]}, "properties": {"play": "Henry IV, Part II", "place name": "Lancaster", "character": "Servant", "a.s.l.": "1.2.65"}}, {"type": "Feature", "geometry": {"type": "Point", "coordinates": [-2.7987670898437496, 54.04850481065724]}, "properties": {"play": "Henry IV, Part II", "place name": "Lancaster", "character": "Chief Justice", "a.s.l.": "1.2.209"}}, {"type": "Feature", "geometry": {"type": "Point", "coordinates": [-2.7987670898437496, 54.04850481065724]}, "properties": {"play": "Henry IV, Part II", "place name": "Lancaster", "character": "Falstaff", "a.s.l.": "1.2.246"}}, {"type": "Feature", "geometry": {"type": "Point", "coordinates": [-2.7987670898437496, 54.04850481065724]}, "properties": {"play": "Henry IV, Part II", "place name": "Lancaster", "character": "Hastings", "a.s.l.": "1.3.85"}}, {"type": "Feature", "geometry": {"type": "Point", "coordinates": [-2.7987670898437496, 54.04850481065724]}, "properties": {"play": "Henry IV, Part II", "place name": "Lancaster", "character": "Gower", "a.s.l.": "2.1.182"}}, {"type": "Feature", "geometry": {"type": "Point", "coordinates": [-2.7987670898437496, 54.04850481065724]}, "properties": {"play": "Henry IV, Part II", "place name": "Lancaster", "character": "Westmoreland", "a.s.l.": "4.1.30"}}, {"type": "Feature", "geometry": {"type": "Point", "coordinates": [-2.7987670898437496, 54.04850481065724]}, "properties": {"play": "Henry IV, Part II", "place name": "Lancaster", "character": "Archbishop", "a.s.l.": "4.1.275"}}, {"type": "Feature", "geometry": {"type": "Point", "coordinates": [-2.7987670898437496, 54.04850481065724]}, "properties": {"play": "Henry IV, Part II", "place name": "Lancaster", "character": "King", "a.s.l.": "4.3.385"}}, {"type": "Feature", "geometry": {"type": "Point", "coordinates": [-2.7534484863281246, 52.707803260671206]}, "properties": {"play": "Henry IV, Part II", "place name": "Shrewsbury", "character": "Rumor", "a.s.l.": "IND.24"}}, {"type": "Feature", "geometry": {"type": "Point", "coordinates": [-2.7534484863281246, 52.707803260671206]}, "properties": {"play": "Henry IV, Part II", "place name": "Shrewsbury", "character": "Rumor", "a.s.l.": "IND.34"}}, {"type": "Feature", "geometry": {"type": "Point", "coordinates": [-2.7534484863281246, 52.707803260671206]}, "properties": {"play": "Henry IV, Part II", "place name": "Shrewsbury", "character": "Lord Bardolph", "a.s.l.": "1.1.16"}}, {"type": "Feature", "geometry": {"type": "Point", "coordinates": [-2.7534484863281246, 52.707803260671206]}, "properties": {"play": "Henry IV, Part II", "place name": "Shrewsbury", "character": "Northumberland", "a.s.l.": "1.1.30"}}, {"type": "Feature", "geometry": {"type": "Point", "coordinates": [-2.7534484863281246, 52.707803260671206]}, "properties": {"play": "Henry IV, Part II", "place name": "Shrewsbury", "character": "Travers", "a.s.l.": "1.1.46"}}, {"type": "Feature", "geometry": {"type": "Point", "coordinates": [-2.7534484863281246, 52.707803260671206]}, "properties": {"play": "Henry IV, Part II", "place name": "Shrewsbury", "character": "Northumberland", "a.s.l.": "1.1.74"}}, {"type": "Feature", "geometry": {"type": "Point", "coordinates": [-2.7534484863281246, 52.707803260671206]}, "properties": {"play": "Henry IV, Part II", "place name": "Shrewsbury", "character": "Morton", "a.s.l.": "1.1.75"}}, {"type": "Feature", "geometry": {"type": "Point", "coordinates": [-2.7534484863281246, 52.707803260671206]}, "properties": {"play": "Henry IV, Part II", "place name": "Shrewsbury", "character": "Servant", "a.s.l.": "1.2.64"}}, {"type": "Feature", "geometry": {"type": "Point", "coordinates": [-2.7534484863281246, 52.707803260671206]}, "properties": {"play": "Henry IV, Part II", "place name": "Shrewsbury", "character": "Chief Justice", "a.s.l.": "1.2.105"}}, {"type": "Feature", "geometry": {"type": "Point", "coordinates": [-2.7534484863281246, 52.707803260671206]}, "properties": {"play": "Henry IV, Part II", "place name": "Shrewsbury", "character": "Chief Justice", "a.s.l.": "1.2.151"}}, {"type": "Feature", "geometry": {"type": "Point", "coordinates": [-2.7534484863281246, 52.707803260671206]}, "properties": {"play": "Henry IV, Part II", "place name": "Shrewsbury", "character": "Archbishop", "a.s.l.": "1.3.28"}}, {"type": "Feature", "geometry": {"type": "Point", "coordinates": [2.900390625, 47.30903424774781]}, "properties": {"play": "Henry IV, Part II", "place name": "France", "character": "John Of Lancaster", "a.s.l.": "5.5.108"}}, {"type": "Feature", "geometry": {"type": "Point", "coordinates": [2.900390625, 47.30903424774781]}, "properties": {"play": "Henry IV, Part II", "place name": "France", "character": "#Epilogue_2H4", "a.s.l.": "EPI.31"}}, {"type": "Feature", "geometry": {"type": "Point", "coordinates": [-1.5099334716796875, 52.408702383497904]}, "properties": {"play": "Henry IV, Part II", "place name": "Coventry", "character": "Westmoreland", "a.s.l.": "4.1.142"}}, {"type": "Feature", "geometry": {"type": "Point", "coordinates": [-0.34160614013671875, 51.7493516404992]}, "properties": {"play": "Henry IV, Part II", "place name": "Saint Albans", "character": "Poins", "a.s.l.": "2.2.168"}}, {"type": "Feature", "geometry": {"type": "Point", "coordinates": [-2.1152114868164062, 52.80608223985886]}, "properties": {"play": "Henry IV, Part II", "place name": "Stafford", "character": "Lord Bardolph", "a.s.l.": "1.1.23"}}, {"type": "Feature", "geometry": {"type": "Point", "coordinates": [-2.1152114868164062, 52.80608223985886]}, "properties": {"play": "Henry IV, Part II", "place name": "Stafford", "character": "Shallow", "a.s.l.": "3.2.20"}}, {"type": "Feature", "geometry": {"type": "Point", "coordinates": [-2.8900909423828125, 53.19081326790052]}, "properties": {"play": "Henry IV, Part II", "place name": "Chester", "character": "Travers", "a.s.l.": "1.1.45"}}, {"type": "Feature", "geometry": {"type": "Point", "coordinates": [26.222991943359375, 39.97501535728991]}, "properties": {"play": "Henry IV, Part II", "place name": "Troy", "character": "Northumberland", "a.s.l.": "1.1.84"}}, {"type": "Feature", "geometry": {"type": "Point", "coordinates": [26.222991943359375, 39.97501535728991]}, "properties": {"play": "Henry IV, Part II", "place name": "Troy", "character": "Doll", "a.s.l.": "2.4.221"}}, {"type": "Feature", "geometry": {"type": "Point", "coordinates": [-1.3077163696289062, 53.691726126958606]}, "properties": {"play": "Henry IV, Part II", "place name": "Pomfret", "character": "Morton", "a.s.l.": "1.1.224"}}, {"type": "Feature", "geometry": {"type": "Point", "coordinates": [-0.10192394256591797, 51.51913158267739]}, "properties": {"play": "Henry IV, Part II", "place name": "Smithfield", "character": "Page", "a.s.l.": "1.2.51"}}, {"type": "Feature", "geometry": {"type": "Point", "coordinates": [-0.10192394256591797, 51.51913158267739]}, "properties": {"play": "Henry IV, Part II", "place name": "Smithfield", "character": "Falstaff", "a.s.l.": "1.2.54"}}, {"type": "Feature", "geometry": {"type": "Point", "coordinates": [0.5824470520019531, 50.85532180383167]}, "properties": {"play": "Henry IV, Part II", "place name": "Hastings", "character": "Lord Bardolph", "a.s.l.": "1.3.16"}}, {"type": "Feature", "geometry": {"type": "Point", "coordinates": [0.5824470520019531, 50.85532180383167]}, "properties": {"play": "Henry IV, Part II", "place name": "Hastings", "character": "John Of Lancaster", "a.s.l.": "4.1.245"}}, {"type": "Feature", "geometry": {"type": "Point", "coordinates": [0.5824470520019531, 50.85532180383167]}, "properties": {"play": "Henry IV, Part II", "place name": "Hastings", "character": "John Of Lancaster", "a.s.l.": "4.1.297"}}, {"type": "Feature", "geometry": {"type": "Point", "coordinates": [0.5824470520019531, 50.85532180383167]}, "properties": {"play": "Henry IV, Part II", "place name": "Hastings", "character": "Archbishop", "a.s.l.": "4.1.350"}}, {"type": "Feature", "geometry": {"type": "Point", "coordinates": [0.5824470520019531, 50.85532180383167]}, "properties": {"play": "Henry IV, Part II", "place name": "Hastings", "character": "Westmoreland", "a.s.l.": "4.1.362"}}, {"type": "Feature", "geometry": {"type": "Point", "coordinates": [0.5824470520019531, 50.85532180383167]}, "properties": {"play": "Henry IV, Part II", "place name": "Hastings", "character": "Westmoreland", "a.s.l.": "4.3.91"}}, {"type": "Feature", "geometry": {"type": "Point", "coordinates": [-0.08692502975463867, 51.5125218101862]}, "properties": {"play": "Henry IV, Part II", "place name": "Lumbert", "character": "Hostess", "a.s.l.": "2.1.27"}}, {"type": "Feature", "geometry": {"type": "Point", "coordinates": [-0.57952880859375, 44.84029065139799]}, "properties": {"play": "Henry IV, Part II", "place name": "Bordeaux", "character": "Doll", "a.s.l.": "2.4.65"}}, {"type": "Feature", "geometry": {"type": "Point", "coordinates": [-3.7545776367187496, 55.101944719793146]}, "properties": {"play": "Henry IV, Part II", "place name": "Galloway", "character": "Pistol", "a.s.l.": "2.4.191"}}, {"type": "Feature", "geometry": {"type": "Point", "coordinates": [-2.155294418334961, 51.99375982267441]}, "properties": {"play": "Henry IV, Part II", "place name": "Tewkesbury", "character": "Falstaff", "a.s.l.": "2.4.245"}}, {"type": "Feature", "geometry": {"type": "Point", "coordinates": [-0.13647079467773438, 51.49730901400831]}, "properties": {"play": "Henry IV, Part II", "place name": "Westminster", "character": "Peto", "a.s.l.": "2.4.362"}}, {"type": "Feature", "geometry": {"type": "Point", "coordinates": [-0.38486480712890625, 51.250741914997924]}, "properties": {"play": "Henry IV, Part II", "place name": "Surrey", "character": "King", "a.s.l.": "3.1.1"}}, {"type": "Feature", "geometry": {"type": "Point", "coordinates": [-1.5791130065917969, 52.28517237640325]}, "properties": {"play": "Henry IV, Part II", "place name": "Warwick", "character": "King", "a.s.l.": "3.1.1"}}, {"type": "Feature", "geometry": {"type": "Point", "coordinates": [-1.5791130065917969, 52.28517237640325]}, "properties": {"play": "Henry IV, Part II", "place name": "Warwick", "character": "King", "a.s.l.": "4.3.196"}}, {"type": "Feature", "geometry": {"type": "Point", "coordinates": [-1.5791130065917969, 52.28517237640325]}, "properties": {"play": "Henry IV, Part II", "place name": "Warwick", "character": "King", "a.s.l.": "4.3.213"}}, {"type": "Feature", "geometry": {"type": "Point", "coordinates": [-1.5791130065917969, 52.28517237640325]}, "properties": {"play": "Henry IV, Part II", "place name": "Warwick", "character": "King", "a.s.l.": "4.3.391"}}, {"type": "Feature", "geometry": {"type": "Point", "coordinates": [-1.5791130065917969, 52.28517237640325]}, "properties": {"play": "Henry IV, Part II", "place name": "Warwick", "character": "Prince", "a.s.l.": "4.3.392"}}, {"type": "Feature", "geometry": {"type": "Point", "coordinates": [-1.5791130065917969, 52.28517237640325]}, "properties": {"play": "Henry IV, Part II", "place name": "Warwick", "character": "John Of Lancaster", "a.s.l.": "5.2.21"}}, {"type": "Feature", "geometry": {"type": "Point", "coordinates": [-1.2572479248046875, 51.75168965298393]}, "properties": {"play": "Henry IV, Part II", "place name": "Oxford", "character": "Shallow", "a.s.l.": "3.2.10"}}, {"type": "Feature", "geometry": {"type": "Point", "coordinates": [-2.047576904296875, 52.81936300159786]}, "properties": {"play": "Henry IV, Part II", "place name": "Staffordshire", "character": "Shallow", "a.s.l.": "3.2.20"}}, {"type": "Feature", "geometry": {"type": "Point", "coordinates": [-2.124481201171875, 51.72872938200587]}, "properties": {"play": "Henry IV, Part II", "place name": "Cotswold", "character": "Shallow", "a.s.l.": "3.2.22"}}, {"type": "Feature", "geometry": {"type": "Point", "coordinates": [1.0382080078125, 52.6946965109301]}, "properties": {"play": "Henry IV, Part II", "place name": "Norfolk", "character": "Shallow", "a.s.l.": "3.2.28"}}, {"type": "Feature", "geometry": {"type": "Point", "coordinates": [-0.4799652099609375, 52.65222859561964]}, "properties": {"play": "Henry IV, Part II", "place name": "Stamford", "character": "Shallow", "a.s.l.": "3.2.41"}}, {"type": "Feature", "geometry": {"type": "Point", "coordinates": [-0.035490989685058594, 51.52487262675978]}, "properties": {"play": "Henry IV, Part II", "place name": "Mile End Green", "character": "Shallow", "a.s.l.": "3.2.289"}}, {"type": "Feature", "geometry": {"type": "Point", "coordinates": [-0.10518550872802733, 51.52118776072269]}, "properties": {"play": "Henry IV, Part II", "place name": "Turnbull", "character": "Falstaff", "a.s.l.": "3.2.317"}}, {"type": "Feature", "geometry": {"type": "Point", "coordinates": [-1.0711669921875, 54.06543280812785]}, "properties": {"play": "Henry IV, Part II", "place name": "Gaultree", "character": "Hastings", "a.s.l.": "4.1.2"}}, {"type": "Feature", "geometry": {"type": "Point", "coordinates": [-2.71636962890625, 52.055129431219065]}, "properties": {"play": "Henry IV, Part II", "place name": "Hereford", "character": "Westmoreland", "a.s.l.": "4.1.137"}}, {"type": "Feature", "geometry": {"type": "Point", "coordinates": [-2.71636962890625, 52.055129431219065]}, "properties": {"play": "Henry IV, Part II", "place name": "Hereford", "character": "Westmoreland", "a.s.l.": "4.1.146"}}, {"type": "Feature", "geometry": {"type": "Point", "coordinates": [12.480468749999998, 41.89001042401827]}, "properties": {"play": "Henry IV, Part II", "place name": "Rome", "character": "Falstaff", "a.s.l.": "4.2.41"}}, {"type": "Feature", "geometry": {"type": "Point", "coordinates": [-2.2477340698242188, 51.865044036043194]}, "properties": {"play": "Henry IV, Part II", "place name": "Gloucester", "character": "Falstaff", "a.s.l.": "4.2.84"}}, {"type": "Feature", "geometry": {"type": "Point", "coordinates": [-2.2477340698242188, 51.865044036043194]}, "properties": {"play": "Henry IV, Part II", "place name": "Gloucester", "character": "Falstaff", "a.s.l.": "4.2.132"}}, {"type": "Feature", "geometry": {"type": "Point", "coordinates": [-2.2477340698242188, 51.865044036043194]}, "properties": {"play": "Henry IV, Part II", "place name": "Gloucester", "character": "King", "a.s.l.": "4.3.13"}}, {"type": "Feature", "geometry": {"type": "Point", "coordinates": [-2.2477340698242188, 51.865044036043194]}, "properties": {"play": "Henry IV, Part II", "place name": "Gloucester", "character": "King", "a.s.l.": "4.3.196"}}, {"type": "Feature", "geometry": {"type": "Point", "coordinates": [-1.43096923828125, 54.234734962180816]}, "properties": {"play": "Henry IV, Part II", "place name": "Yorkshire", "character": "Harcourt", "a.s.l.": "4.3.107"}}, {"type": "Feature", "geometry": {"type": "Point", "coordinates": [-1.3736343383789062, 52.541075849696064]}, "properties": {"play": "Henry IV, Part II", "place name": "Hinckley", "character": "Davy", "a.s.l.": "5.1.25"}}, {"type": "Feature", "geometry": {"type": "Point", "coordinates": [-2.3485851287841797, 51.67463100528772]}, "properties": {"play": "Henry IV, Part II", "place name": "Woncot", "character": "Davy", "a.s.l.": "5.1.39"}}, {"type": "Feature", "geometry": {"type": "Point", "coordinates": [25.224609375, 8.059229627200192]}, "properties": {"play": "Henry IV, Part II", "place name": "Africa", "character": "Pistol", "a.s.l.": "5.3.100"}}, {"type": "Feature", "geometry": {"type": "Point", "coordinates": [-0.10399460792541504, 51.51445142876138]}, "properties": {"play": "Henry IV, Part II", "place name": "Fleet", "character": "Chief Justice", "a.s.l.": "5.5.92"}}, {"type": "Feature", "geometry": {"type": "Point", "coordinates": [9.375629425048828, 45.10151719848135]}, "properties": {"play": "Henry IV, Part II", "place name": "Po", "character": "Morton", "a.s.l.": "1.1.224"}}]}